var sizeDot = 5

var opacityVar = .75
var opacityFillVar = .25

var radiusLookup = {
    high: 17,
    medium: 11,
    low: 5,
};

var productLookup = {
    foods: "green",
    materials: "darkorange",
    other: "crimson",
    textiles: "dodgerblue",
};

var places = { data:[

 { "lat": 30.33599, "lon": 48.27639, "name": "Abbadan", "topType": "low", "product": "other", "comment": "town: reed mats (Cornu 3)", } , 
 { "lat": 30.40472, "lon": 47.71794, "name": "Al-Basra", "topType": "high", "product": "foods", "comment": "capital: fish, dates, meat, vegetables, grains, dairy, silks, linens, galbanum, pearls, gems, antimony, cinnabar, verdigris, silver, henna, essence of violet, rosewater (Cornu 3)", } , 
 { "lat": 30.40472, "lon": 47.71794, "name": "Al-Basra", "topType": "high", "product": "other", "comment": "capital: fish, dates, meat, vegetables, grains, dairy, silks, linens, galbanum, pearls, gems, antimony, cinnabar, verdigris, silver, henna, essence of violet, rosewater (Cornu 3)", } , 
 { "lat": 30.40472, "lon": 47.71794, "name": "Al-Basra", "topType": "high", "product": "textiles", "comment": "capital: fish, dates, meat, vegetables, grains, dairy, silks, linens, galbanum, pearls, gems, antimony, cinnabar, verdigris, silver, henna, essence of violet, rosewater (Cornu 3)", } , 
 { "lat": 32.0469, "lon": 44.38095, "name": "Al-Kufa", "topType": "medium", "product": "foods", "comment": "metropolis: silk turbans, essence of violet, dates (Cornu 3)", } , 
 { "lat": 32.0469, "lon": 44.38095, "name": "Al-Kufa", "topType": "medium", "product": "textiles", "comment": "metropolis: silk turbans, essence of violet, dates (Cornu 3)", } , 
 { "lat": 33.09255, "lon": 44.59468, "name": "Al-Mada'in", "topType": "low", "product": "materials", "comment": "town: brick (Cornu 3)", } , 
 { "lat": 32.59735, "lon": 45.42572, "name": "Al-Nu'maniyya", "topType": "low", "product": "textiles", "comment": "village: honey-colored wool cloth, garments (Cornu 3)", } , 
 { "lat": 31.7787, "lon": 44.16721, "name": "Al-Qadisiyya", "topType": "low", "product": "materials", "comment": "town: clay (Cornu 3)", } , 
 { "lat": 30.49856, "lon": 47.83653, "name": "Al-Ubulla", "topType": "low", "product": "textiles", "comment": "town: linen, embroidery (Cornu 3)", } , 
 { "lat": 33.35759, "lon": 44.35661, "name": "Baghdad", "topType": "medium", "product": "textiles", "comment": "metropolis: silk, rush mats, shawls, turbans (Cornu 3)", } , 
 { "lat": 34.47903, "lon": 45.85673, "name": "Hulwan", "topType": "low", "product": "foods", "comment": "capital: grapes, figs, gypsum, stone (Cornu 3)", } , 
 { "lat": 34.47903, "lon": 45.85673, "name": "Hulwan", "topType": "low", "product": "materials", "comment": "capital: grapes, figs, gypsum, stone (Cornu 3)", } , 
 { "lat": 32.64543, "lon": 44.3659, "name": "Sura", "topType": "low", "product": "foods", "comment": "town: fruits, grapes (Cornu 3)", } , 
 { "lat": 34.59276, "lon": 43.69726, "name": "Takrit", "topType": "low", "product": "foods", "comment": "town: sesame, wool (Cornu 3)", } , 
 { "lat": 34.59276, "lon": 43.69726, "name": "Takrit", "topType": "low", "product": "textiles", "comment": "town: sesame, wool (Cornu 3)", } , 
 { "lat": 33.85513, "lon": 44.22385, "name": "Ukbara", "topType": "low", "product": "foods", "comment": "town: fruits, grapes (Cornu 3)", } , 
 { "lat": 32.19906, "lon": 46.32048, "name": "Wasit", "topType": "low", "product": "foods", "comment": "capital: fish, draperies (Cornu 3)", } , 
 { "lat": 32.19906, "lon": 46.32048, "name": "Wasit", "topType": "low", "product": "textiles", "comment": "capital: fish, draperies (Cornu 3)", } , 
 { "lat": 34.10618, "lon": 42.38721, "name": "Al-Haditha", "topType": "low", "product": "materials", "comment": "town: clay (Cornu 2)", } , 
 { "lat": 37.02848, "lon": 42.95071, "name": "Al-Hasaniyya", "topType": "high", "product": "foods", "comment": "town: cheese, partridge, chickens, fruits, raisins (Cornu 2)", } , 
 { "lat": 36.23972, "lon": 41.62311, "name": "Al-Jibal", "topType": "low", "product": "materials", "comment": "town: stone, clay (Cornu 2)", } , 
 { "lat": 36.32392, "lon": 43.12573, "name": "Al-Mawsil", "topType": "high", "product": "foods", "comment": "metropolis: fruits, meats, gypsum, stone, leather, grains, honey, coal, fats, cheese, honeydew, sumac, pomegranate seeds, pitch, iron, metal buckets, knives, arrows, fish, chains (Cornu 2)", } , 
 { "lat": 36.32392, "lon": 43.12573, "name": "Al-Mawsil", "topType": "high", "product": "materials", "comment": "metropolis: fruits, meats, gypsum, stone, leather, grains, honey, coal, fats, cheese, honeydew, sumac, pomegranate seeds, pitch, iron, metal buckets, knives, arrows, fish, chains (Cornu 2)", } , 
 { "lat": 36.32392, "lon": 43.12573, "name": "Al-Mawsil", "topType": "high", "product": "other", "comment": "metropolis: fruits, meats, gypsum, stone, leather, grains, honey, coal, fats, cheese, honeydew, sumac, pomegranate seeds, pitch, iron, metal buckets, knives, arrows, fish, chains (Cornu 2)", } , 
 { "lat": 35.9457, "lon": 39.04911, "name": "Al-Raqqa", "topType": "high", "product": "foods", "comment": "capital: soap, olives, olive oil, soap, reed pens, quinces (fruit) (Cornu 2)", } , 
 { "lat": 35.9457, "lon": 39.04911, "name": "Al-Raqqa", "topType": "high", "product": "other", "comment": "capital: soap, olives, olive oil, soap, reed pens, quinces (fruit) (Cornu 2)", } , 
 { "lat": 37.9142, "lon": 40.20808, "name": "Amid", "topType": "medium", "product": "materials", "comment": "capital: black stone, wool, linens (Cornu 2)", } , 
 { "lat": 37.9142, "lon": 40.20808, "name": "Amid", "topType": "medium", "product": "textiles", "comment": "capital: black stone, wool, linens (Cornu 2)", } , 
 { "lat": 36.47036, "lon": 42.7585, "name": "Balad", "topType": "medium", "product": "foods", "comment": "town: gypsum, stone, milk (Cornu 2)", } , 
 { "lat": 36.47036, "lon": 42.7585, "name": "Balad", "topType": "medium", "product": "materials", "comment": "town: gypsum, stone, milk (Cornu 2)", } , 
 { "lat": 37.18499, "lon": 40.94255, "name": "Dara", "topType": "low", "product": "materials", "comment": "village: black stone, cement (Cornu 2)", } , 
 { "lat": 36.88647, "lon": 39.08954, "name": "Harran", "topType": "high", "product": "foods", "comment": "town: stone, qubbayt (fruit preserve), honey, jars, cotton, balances (Cornu 2)", } , 
 { "lat": 36.88647, "lon": 39.08954, "name": "Harran", "topType": "high", "product": "materials", "comment": "town: stone, qubbayt (fruit preserve), honey, jars, cotton, balances (Cornu 2)", } , 
 { "lat": 36.88647, "lon": 39.08954, "name": "Harran", "topType": "high", "product": "other", "comment": "town: stone, qubbayt (fruit preserve), honey, jars, cotton, balances (Cornu 2)", } , 
 { "lat": 37.28424, "lon": 42.19923, "name": "Jazirat Ibn 'Umar", "topType": "low", "product": "materials", "comment": "town: stone (Cornu 2)", } , 
 { "lat": 36.81098, "lon": 42.96065, "name": "Ma'lathaya", "topType": "high", "product": "foods", "comment": "village: clay, dairy, coal, grapes, fruits, cannabis seed, hemp, meats (Cornu 2)", } , 
 { "lat": 36.81098, "lon": 42.96065, "name": "Ma'lathaya", "topType": "high", "product": "materials", "comment": "village: clay, dairy, coal, grapes, fruits, cannabis seed, hemp, meats (Cornu 2)", } , 
 { "lat": 36.81098, "lon": 42.96065, "name": "Ma'lathaya", "topType": "high", "product": "other", "comment": "village: clay, dairy, coal, grapes, fruits, cannabis seed, hemp, meats (Cornu 2)", } , 
 { "lat": 37.05605, "lon": 41.21882, "name": "Nasibin", "topType": "high", "product": "foods", "comment": "town: fruits, stone, cement, chestnuts, balances, inkstands, beating rods for fulling (Cornu 2)", } , 
 { "lat": 37.05605, "lon": 41.21882, "name": "Nasibin", "topType": "high", "product": "materials", "comment": "town: fruits, stone, cement, chestnuts, balances, inkstands, beating rods for fulling (Cornu 2)", } , 
 { "lat": 37.05605, "lon": 41.21882, "name": "Nasibin", "topType": "high", "product": "other", "comment": "town: fruits, stone, cement, chestnuts, balances, inkstands, beating rods for fulling (Cornu 2)", } , 
 { "lat": 36.83795, "lon": 40.05984, "name": "Ra's al-'Ayn", "topType": "low", "product": "materials", "comment": "town: gypsum, stone (Cornu 2)", } , 
 { "lat": 36.3212, "lon": 41.89264, "name": "Sinjar", "topType": "high", "product": "foods", "comment": "town: palm wood, shoes, almonds, pomegranate seeds, reeds, sumac (Cornu 2)", } , 
 { "lat": 36.3212, "lon": 41.89264, "name": "Sinjar", "topType": "high", "product": "materials", "comment": "town: palm wood, shoes, almonds, pomegranate seeds, reeds, sumac (Cornu 2)", } , 
 { "lat": 36.3212, "lon": 41.89264, "name": "Sinjar", "topType": "high", "product": "other", "comment": "town: palm wood, shoes, almonds, pomegranate seeds, reeds, sumac (Cornu 2)", } , 
 { "lat": 37.72257, "lon": 41.77809, "name": "Tall Fafan", "topType": "low", "product": "materials", "comment": "town: clay (Cornu 2)", } , 
 { "lat": 32.92794, "lon": 35.07575, "name": "Akka", "topType": "low", "product": "foods", "comment": "town: olive oil, stone (Cornu 1)", } , 
 { "lat": 32.92794, "lon": 35.07575, "name": "Akka", "topType": "low", "product": "materials", "comment": "town: olive oil, stone (Cornu 1)", } , 
 { "lat": 32.98035, "lon": 35.62302, "name": "Al-Hula", "topType": "low", "product": "other", "comment": "village: cotton, flowers (Cornu 1)", } , 
 { "lat": 32.98035, "lon": 35.62302, "name": "Al-Hula", "topType": "low", "product": "textiles", "comment": "village: cotton, flowers (Cornu 1)", } , 
 { "lat": 31.9268, "lon": 34.86175, "name": "Al-Ramla", "topType": "high", "product": "foods", "comment": "capital: fruits, bread, figs, palm wood, stone, brick, marble, cypress wood, cedar wood, olive oil, raisins, poplin (fabric), soap, towels, veils (Cornu 1)", } , 
 { "lat": 31.9268, "lon": 34.86175, "name": "Al-Ramla", "topType": "high", "product": "materials", "comment": "capital: fruits, bread, figs, palm wood, stone, brick, marble, cypress wood, cedar wood, olive oil, raisins, poplin (fabric), soap, towels, veils (Cornu 1)", } , 
 { "lat": 31.9268, "lon": 34.86175, "name": "Al-Ramla", "topType": "high", "product": "other", "comment": "capital: fruits, bread, figs, palm wood, stone, brick, marble, cypress wood, cedar wood, olive oil, raisins, poplin (fabric), soap, towels, veils (Cornu 1)", } , 
 { "lat": 31.9268, "lon": 34.86175, "name": "Al-Ramla", "topType": "high", "product": "textiles", "comment": "capital: fruits, bread, figs, palm wood, stone, brick, marble, cypress wood, cedar wood, olive oil, raisins, poplin (fabric), soap, towels, veils (Cornu 1)", } , 
 { "lat": 31.93207, "lon": 35.91747, "name": "Amman", "topType": "high", "product": "foods", "comment": "town: grains, livestock, fruits, honey, olives, figs (Cornu 1)", } , 
 { "lat": 31.86115, "lon": 34.80752, "name": "Aqir", "topType": "low", "product": "foods", "comment": "village: bread (Cornu 1)", } , 
 { "lat": 31.86067, "lon": 35.43599, "name": "Ariha", "topType": "high", "product": "foods", "comment": "town: indigo, palm wood, bananas, dates, flowers (Cornu 1)", } , 
 { "lat": 31.86067, "lon": 35.43599, "name": "Ariha", "topType": "high", "product": "materials", "comment": "town: indigo, palm wood, bananas, dates, flowers (Cornu 1)", } , 
 { "lat": 31.86067, "lon": 35.43599, "name": "Ariha", "topType": "high", "product": "other", "comment": "town: indigo, palm wood, bananas, dates, flowers (Cornu 1)", } , 
 { "lat": 31.66691, "lon": 34.55469, "name": "Ascalon", "topType": "medium", "product": "foods", "comment": "town: fruits, marble, silk (Cornu 1)", } , 
 { "lat": 31.66691, "lon": 34.55469, "name": "Ascalon", "topType": "medium", "product": "materials", "comment": "town: fruits, marble, silk (Cornu 1)", } , 
 { "lat": 31.66691, "lon": 34.55469, "name": "Ascalon", "topType": "medium", "product": "textiles", "comment": "town: fruits, marble, silk (Cornu 1)", } , 
 { "lat": 34.01477, "lon": 36.19264, "name": "Ba'labakk", "topType": "low", "product": "foods", "comment": "town: grapes, figs (Cornu 1)", } , 
 { "lat": 35.18022, "lon": 35.96911, "name": "Baniyas", "topType": "low", "product": "foods", "comment": "town: grains (Cornu 1)", } , 
 { "lat": 32.50092, "lon": 35.48967, "name": "Baysan", "topType": "medium", "product": "foods", "comment": "town: palm wood, rice, indigo, dates (Cornu 1)", } , 
 { "lat": 32.50092, "lon": 35.48967, "name": "Baysan", "topType": "medium", "product": "other", "comment": "town: palm wood, rice, indigo, dates (Cornu 1)", } , 
 { "lat": 31.78021, "lon": 35.19908, "name": "Bayt al-Maqdis", "topType": "high", "product": "foods", "comment": "town: grapes, quinces (fruit), almonds, dates, nuts, figs, bananas, milk, honey, sugar, stone, marble, cedar wood, iron, olive oil, cheese, cotton, raisins, apples, pine nuts, mirrors, lamps, needles, rosaries, medicine (Cornu 1)", } , 
 { "lat": 31.78021, "lon": 35.19908, "name": "Bayt al-Maqdis", "topType": "high", "product": "materials", "comment": "town: grapes, quinces (fruit), almonds, dates, nuts, figs, bananas, milk, honey, sugar, stone, marble, cedar wood, iron, olive oil, cheese, cotton, raisins, apples, pine nuts, mirrors, lamps, needles, rosaries, medicine (Cornu 1)", } , 
 { "lat": 31.78021, "lon": 35.19908, "name": "Bayt al-Maqdis", "topType": "high", "product": "other", "comment": "town: grapes, quinces (fruit), almonds, dates, nuts, figs, bananas, milk, honey, sugar, stone, marble, cedar wood, iron, olive oil, cheese, cotton, raisins, apples, pine nuts, mirrors, lamps, needles, rosaries, medicine (Cornu 1)", } , 
 { "lat": 31.60679, "lon": 34.88151, "name": "Bayt Jibril", "topType": "low", "product": "foods", "comment": "town: marble, grains (Cornu 1)", } , 
 { "lat": 31.60679, "lon": 34.88151, "name": "Bayt Jibril", "topType": "low", "product": "materials", "comment": "town: marble, grains (Cornu 1)", } , 
 { "lat": 31.70854, "lon": 35.18829, "name": "Bayt Lahm", "topType": "low", "product": "materials", "comment": "village: palm wood (Cornu 1)", } , 
 { "lat": 33.52454, "lon": 36.30364, "name": "Dimashq", "topType": "high", "product": "foods", "comment": "metropolis: wood, brick, clay, fruits, marble, carnelian (precious stone), turquoise, olive oil, cloth, silk brocade, essence of violet, brass containers, paper, nuts, figs, raisins (Cornu 1)", } , 
 { "lat": 33.52454, "lon": 36.30364, "name": "Dimashq", "topType": "high", "product": "materials", "comment": "metropolis: wood, brick, clay, fruits, marble, carnelian (precious stone), turquoise, olive oil, cloth, silk brocade, essence of violet, brass containers, paper, nuts, figs, raisins (Cornu 1)", } , 
 { "lat": 33.52454, "lon": 36.30364, "name": "Dimashq", "topType": "high", "product": "other", "comment": "metropolis: wood, brick, clay, fruits, marble, carnelian (precious stone), turquoise, olive oil, cloth, silk brocade, essence of violet, brass containers, paper, nuts, figs, raisins (Cornu 1)", } , 
 { "lat": 33.52454, "lon": 36.30364, "name": "Dimashq", "topType": "high", "product": "textiles", "comment": "metropolis: wood, brick, clay, fruits, marble, carnelian (precious stone), turquoise, olive oil, cloth, silk brocade, essence of violet, brass containers, paper, nuts, figs, raisins (Cornu 1)", } , 
 { "lat": 31.53125, "lon": 35.08654, "name": "Habra", "topType": "high", "product": "foods", "comment": "village: stone, grapes, apples, lentils, olive oil (Cornu 1)", } , 
 { "lat": 31.53125, "lon": 35.08654, "name": "Habra", "topType": "high", "product": "materials", "comment": "village: stone, grapes, apples, lentils, olive oil (Cornu 1)", } , 
 { "lat": 36.19993, "lon": 37.1767, "name": "Halab", "topType": "high", "product": "foods", "comment": "capital: stone, cotton, cloth, salts, red ochre (Cornu 1)", } , 
 { "lat": 36.19993, "lon": 37.1767, "name": "Halab", "topType": "high", "product": "materials", "comment": "capital: stone, cotton, cloth, salts, red ochre (Cornu 1)", } , 
 { "lat": 36.19993, "lon": 37.1767, "name": "Halab", "topType": "high", "product": "other", "comment": "capital: stone, cotton, cloth, salts, red ochre (Cornu 1)", } , 
 { "lat": 36.19993, "lon": 37.1767, "name": "Halab", "topType": "high", "product": "textiles", "comment": "capital: stone, cotton, cloth, salts, red ochre (Cornu 1)", } , 
 { "lat": 32.8655, "lon": 35.21373, "name": "Kabul", "topType": "low", "product": "foods", "comment": "town: sugarcane (Cornu 1)", } , 
 { "lat": 31.25685, "lon": 35.73402, "name": "Ma'ab", "topType": "low", "product": "foods", "comment": "town: almonds, grapes (Cornu 1)", } , 
 { "lat": 32.22343, "lon": 35.2407, "name": "Nabulus", "topType": "low", "product": "foods", "comment": "town: stone, grains (Cornu 1)", } , 
 { "lat": 32.22343, "lon": 35.2407, "name": "Nabulus", "topType": "low", "product": "materials", "comment": "town: stone, grains (Cornu 1)", } , 
 { "lat": 32.88169, "lon": 36.03, "name": "Nawa", "topType": "low", "product": "foods", "comment": "town: grains, wheat (Cornu 1)", } , 
 { "lat": 33.12526, "lon": 35.49121, "name": "Qadas", "topType": "medium", "product": "foods", "comment": "town: reed mats, ropes, fish, cloth (Cornu 1)", } , 
 { "lat": 33.12526, "lon": 35.49121, "name": "Qadas", "topType": "medium", "product": "other", "comment": "town: reed mats, ropes, fish, cloth (Cornu 1)", } , 
 { "lat": 33.12526, "lon": 35.49121, "name": "Qadas", "topType": "medium", "product": "textiles", "comment": "town: reed mats, ropes, fish, cloth (Cornu 1)", } , 
 { "lat": 32.49321, "lon": 34.90001, "name": "Qaysariyya", "topType": "low", "product": "foods", "comment": "town: fruits (Cornu 1)", } , 
 { "lat": 31.03794, "lon": 35.46578, "name": "Sughar", "topType": "low", "product": "foods", "comment": "capital: indigo, dates (Cornu 1)", } , 
 { "lat": 31.03794, "lon": 35.46578, "name": "Sughar", "topType": "low", "product": "other", "comment": "capital: indigo, dates (Cornu 1)", } , 
 { "lat": 33.27172, "lon": 35.20987, "name": "Sur", "topType": "medium", "product": "foods", "comment": "town: sugar, glass beads, glass vessels (Cornu 1)", } , 
 { "lat": 33.27172, "lon": 35.20987, "name": "Sur", "topType": "medium", "product": "other", "comment": "town: sugar, glass beads, glass vessels (Cornu 1)", } , 
 { "lat": 32.78303, "lon": 35.50971, "name": "Tabariyya", "topType": "high", "product": "foods", "comment": "capital: stone, lotus fruit, sugarcane, fish, grapes, olives, plums, carpets, paper, cloth (Cornu 1)", } , 
 { "lat": 32.78303, "lon": 35.50971, "name": "Tabariyya", "topType": "high", "product": "materials", "comment": "capital: stone, lotus fruit, sugarcane, fish, grapes, olives, plums, carpets, paper, cloth (Cornu 1)", } , 
 { "lat": 32.78303, "lon": 35.50971, "name": "Tabariyya", "topType": "high", "product": "other", "comment": "capital: stone, lotus fruit, sugarcane, fish, grapes, olives, plums, carpets, paper, cloth (Cornu 1)", } , 
 { "lat": 32.78303, "lon": 35.50971, "name": "Tabariyya", "topType": "high", "product": "textiles", "comment": "capital: stone, lotus fruit, sugarcane, fish, grapes, olives, plums, carpets, paper, cloth (Cornu 1)", } , 
 { "lat": 29.54301, "lon": 34.93683, "name": "Wayla", "topType": "low", "product": "foods", "comment": "town: palm wood, fish (Cornu 1)", } , 
 { "lat": 29.54301, "lon": 34.93683, "name": "Wayla", "topType": "low", "product": "materials", "comment": "town: palm wood, fish (Cornu 1)", } , 
 { "lat": 32.06156, "lon": 34.75356, "name": "Yafa", "topType": "low", "product": "materials", "comment": "town: iron (Cornu 1)", } , 
 { "lat": 31.86886, "lon": 34.73352, "name": "Yubna", "topType": "low", "product": "foods", "comment": "village: figs (Cornu 1)", } , 
 { "lat": 12.78199, "lon": 45.00527, "name": "Adan", "topType": "high", "product": "foods", "comment": "town: grains, wheat, fruits, vegetables, agricultural foods, grapes, corn, ambergris, linens, shields, tiger skins, yellow dye (Cornu 7)", } , 
 { "lat": 12.78199, "lon": 45.00527, "name": "Adan", "topType": "high", "product": "other", "comment": "town: grains, wheat, fruits, vegetables, agricultural foods, grapes, corn, ambergris, linens, shields, tiger skins, yellow dye (Cornu 7)", } , 
 { "lat": 12.78199, "lon": 45.00527, "name": "Adan", "topType": "high", "product": "textiles", "comment": "town: grains, wheat, fruits, vegetables, agricultural foods, grapes, corn, ambergris, linens, shields, tiger skins, yellow dye (Cornu 7)", } , 
 { "lat": 25.32201, "lon": 49.53833, "name": "al-Ahsa", "topType": "low", "product": "foods", "comment": "capital: palm wood, dates (Cornu 7)", } , 
 { "lat": 25.32201, "lon": 49.53833, "name": "al-Ahsa", "topType": "low", "product": "materials", "comment": "capital: palm wood, dates (Cornu 7)", } , 
 { "lat": 26.91997, "lon": 36.07315, "name": "al-Awnid", "topType": "low", "product": "foods", "comment": "town: honey (Cornu 7)", } , 
 { "lat": 25.95834, "lon": 41.74814, "name": "al-Hijr", "topType": "low", "product": "foods", "comment": "town: agricultural foods (Cornu 7)", } , 
 { "lat": 23.75433, "lon": 38.56846, "name": "al-Jar", "topType": "low", "product": "foods", "comment": "town: grains (Cornu 7)", } , 
 { "lat": 25.62844, "lon": 38.63514, "name": "al-Marwa", "topType": "medium", "product": "foods", "comment": "town: dates, palm wood, iron (Cornu 7)", } , 
 { "lat": 25.62844, "lon": 38.63514, "name": "al-Marwa", "topType": "medium", "product": "materials", "comment": "town: dates, palm wood, iron (Cornu 7)", } , 
 { "lat": 24.3857, "lon": 39.64999, "name": "al-Medina (Yathrib)", "topType": "high", "product": "foods", "comment": "metropolis: palm wood, agricultural foods, clay, stone, marble, dates (Cornu 7)", } , 
 { "lat": 24.3857, "lon": 39.64999, "name": "al-Medina (Yathrib)", "topType": "high", "product": "materials", "comment": "metropolis: palm wood, agricultural foods, clay, stone, marble, dates (Cornu 7)", } , 
 { "lat": 16.46296, "lon": 42.75519, "name": "al-Sharja", "topType": "medium", "product": "foods", "comment": "town: grains, sorghum, milk (Cornu 7)", } , 
 { "lat": 14.73888, "lon": 49.61378, "name": "al-Shihr", "topType": "low", "product": "foods", "comment": "town: fish, frankincense (Cornu 7)", } , 
 { "lat": 14.73888, "lon": 49.61378, "name": "al-Shihr", "topType": "low", "product": "other", "comment": "town: fish, frankincense (Cornu 7)", } , 
 { "lat": 23.03377, "lon": 56.86106, "name": "al-Sirr", "topType": "low", "product": "foods", "comment": "town: palm wood, dates (Cornu 7)", } , 
 { "lat": 23.03377, "lon": 56.86106, "name": "al-Sirr", "topType": "low", "product": "materials", "comment": "town: palm wood, dates (Cornu 7)", } , 
 { "lat": 26.07942, "lon": 38.38772, "name": "al-Suqya (Yazid)", "topType": "low", "product": "foods", "comment": "town: palm wood, fruits (Cornu 7)", } , 
 { "lat": 26.07942, "lon": 38.38772, "name": "al-Suqya (Yazid)", "topType": "low", "product": "materials", "comment": "town: palm wood, fruits (Cornu 7)", } , 
 { "lat": 23.23842, "lon": 40.35483, "name": "al-Suwariqiyya", "topType": "low", "product": "foods", "comment": "town: agricultural foods, livestock (Cornu 7)", } , 
 { "lat": 21.19409, "lon": 40.42678, "name": "al-Ta'if", "topType": "medium", "product": "foods", "comment": "town: pomegranates, raisins, grapes, fruits (Cornu 7)", } , 
 { "lat": 22.071528, "lon": 39.320278, "name": "Amaj", "topType": "low", "product": "materials", "comment": "village: stone, clay (Cornu 7)", } , 
 { "lat": 21.29365, "lon": 40.21424, "name": "Arafa", "topType": "medium", "product": "foods", "comment": "village: vegetables, melons, brick (Cornu 7)", } , 
 { "lat": 21.29365, "lon": 40.21424, "name": "Arafa", "topType": "medium", "product": "materials", "comment": "village: vegetables, melons, brick (Cornu 7)", } , 
 { "lat": 23.65255, "lon": 38.85975, "name": "Badr", "topType": "low", "product": "foods", "comment": "town: dates (Cornu 7)", } , 
 { "lat": 23.51546, "lon": 56.34077, "name": "Dhank", "topType": "low", "product": "foods", "comment": "town: palm wood, dates (Cornu 7)", } , 
 { "lat": 23.51546, "lon": 56.34077, "name": "Dhank", "topType": "low", "product": "materials", "comment": "town: palm wood, dates (Cornu 7)", } , 
 { "lat": 14.49886, "lon": 43.01908, "name": "Ghalafiqa", "topType": "low", "product": "foods", "comment": "town: palm wood, coconuts (Cornu 7)", } , 
 { "lat": 14.49886, "lon": 43.01908, "name": "Ghalafiqa", "topType": "low", "product": "materials", "comment": "town: palm wood, coconuts (Cornu 7)", } , 
 { "lat": 18.63822, "lon": 41.41935, "name": "Haly", "topType": "low", "product": "other", "comment": "town: drinking cups (Cornu 7)", } , 
 { "lat": 21.45906, "lon": 39.21773, "name": "Judda", "topType": "low", "product": "foods", "comment": "town: grains (Cornu 7)", } , 
 { "lat": 18.64767, "lon": 42.7394, "name": "Jurash", "topType": "medium", "product": "foods", "comment": "town: palm wood, dates, leather (Cornu 7)", } , 
 { "lat": 18.64767, "lon": 42.7394, "name": "Jurash", "topType": "medium", "product": "materials", "comment": "town: palm wood, dates, leather (Cornu 7)", } , 
 { "lat": 22.07851, "lon": 39.43357, "name": "Khulays", "topType": "medium", "product": "foods", "comment": "town: dates, vegetables, agricultural foods (Cornu 7)", } , 
 { "lat": 21.36834, "lon": 39.85793, "name": "Makka", "topType": "high", "product": "foods", "comment": "metropolis: black stone, white stone, brick, teak wood, marble, porridge, grapes, iron (Cornu 7)", } , 
 { "lat": 21.36834, "lon": 39.85793, "name": "Makka", "topType": "high", "product": "materials", "comment": "metropolis: black stone, white stone, brick, teak wood, marble, porridge, grapes, iron (Cornu 7)", } , 
 { "lat": 21.32993, "lon": 39.95051, "name": "Mina", "topType": "low", "product": "materials", "comment": "town: stone, teak wood (Cornu 7)", } , 
 { "lat": 13.31523, "lon": 43.22241, "name": "Mukha/Muha", "topType": "low", "product": "foods", "comment": "town: sesame oil (Cornu 7)", } , 
 { "lat": 17.59743, "lon": 44.32661, "name": "Najran", "topType": "low", "product": "other", "comment": "town: leather (Cornu 7)", } , 
 { "lat": 24.35217, "lon": 39.61774, "name": "Quba", "topType": "low", "product": "materials", "comment": "village: stone (Cornu 7)", } , 
 { "lat": 26.47477, "lon": 38.01189, "name": "Qurh", "topType": "high", "product": "foods", "comment": "town: palm wood, dates, bread, iron, dried peaches (Cornu 7)", } , 
 { "lat": 26.47477, "lon": 38.01189, "name": "Qurh", "topType": "high", "product": "materials", "comment": "town: palm wood, dates, bread, iron, dried peaches (Cornu 7)", } , 
 { "lat": 17.04643, "lon": 43.7019, "name": "Sa'da", "topType": "medium", "product": "other", "comment": "town: leather water bottles, leather mats, skins (Cornu 7)", } , 
 { "lat": 15.45133, "lon": 44.16341, "name": "Sanaa ", "topType": "high", "product": "foods", "comment": "capital: fruits, bread, scarves, carnelians, pelts, pharmceuticals, perfume, saffron, brazilwood, teak wood, ivory, pearls, silk brocade, onyx, sapphire, evony, cocnuts, camphor, sandarax resin, aloe, iron, lead, bamboo, sandalwood, glass, pepper, cloth (Cornu 7)", } , 
 { "lat": 15.45133, "lon": 44.16341, "name": "Sanaa ", "topType": "high", "product": "materials", "comment": "capital: fruits, bread, scarves, carnelians, pelts, pharmceuticals, perfume, saffron, brazilwood, teak wood, ivory, pearls, silk brocade, onyx, sapphire, evony, cocnuts, camphor, sandarax resin, aloe, iron, lead, bamboo, sandalwood, glass, pepper, cloth (Cornu 7)", } , 
 { "lat": 15.45133, "lon": 44.16341, "name": "Sanaa ", "topType": "high", "product": "other", "comment": "capital: fruits, bread, scarves, carnelians, pelts, pharmceuticals, perfume, saffron, brazilwood, teak wood, ivory, pearls, silk brocade, onyx, sapphire, evony, cocnuts, camphor, sandarax resin, aloe, iron, lead, bamboo, sandalwood, glass, pepper, cloth (Cornu 7)", } , 
 { "lat": 15.45133, "lon": 44.16341, "name": "Sanaa ", "topType": "high", "product": "textiles", "comment": "capital: fruits, bread, scarves, carnelians, pelts, pharmceuticals, perfume, saffron, brazilwood, teak wood, ivory, pearls, silk brocade, onyx, sapphire, evony, cocnuts, camphor, sandarax resin, aloe, iron, lead, bamboo, sandalwood, glass, pepper, cloth (Cornu 7)", } , 
 { "lat": 19.83216, "lon": 40.79334, "name": "Sirrayn", "topType": "medium", "product": "foods", "comment": "town: grains, dates, honey (Cornu 7)", } , 
 { "lat": 24.30248, "lon": 56.71892, "name": "Suhar", "topType": "high", "product": "foods", "comment": "capital: fruits, brick, teak wood, dates, palm wood, textiles (Cornu 7)", } , 
 { "lat": 24.30248, "lon": 56.71892, "name": "Suhar", "topType": "high", "product": "materials", "comment": "capital: fruits, brick, teak wood, dates, palm wood, textiles (Cornu 7)", } , 
 { "lat": 24.30248, "lon": 56.71892, "name": "Suhar", "topType": "high", "product": "textiles", "comment": "capital: fruits, brick, teak wood, dates, palm wood, textiles (Cornu 7)", } , 
 { "lat": 24.0479, "lon": 38.23124, "name": "Yanbu'", "topType": "medium", "product": "foods", "comment": "town: dates, palm wood, whetstones, henna (Cornu 7)", } , 
 { "lat": 24.0479, "lon": 38.23124, "name": "Yanbu'", "topType": "medium", "product": "materials", "comment": "town: dates, palm wood, whetstones, henna (Cornu 7)", } , 
 { "lat": 24.0479, "lon": 38.23124, "name": "Yanbu'", "topType": "medium", "product": "other", "comment": "town: dates, palm wood, whetstones, henna (Cornu 7)", } , 
 { "lat": 14.21069, "lon": 43.23337, "name": "Zabid", "topType": "high", "product": "foods", "comment": "metropolis: clay, agricultural foods, brick, fruits, millet, sorghum, scarves, carnelians, pelts, pharmceuticals, perfume, saffron, brazilwood, teak wood, ivory, pearls, silk brocade, onyx, sapphire, evony, cocnuts, camphor, sandarax resin, aloe, iron, lead, bamboo, sandalwood, glass, pepper, leather, indigo (Cornu 7)", } , 
 { "lat": 14.21069, "lon": 43.23337, "name": "Zabid", "topType": "high", "product": "materials", "comment": "metropolis: clay, agricultural foods, brick, fruits, millet, sorghum, scarves, carnelians, pelts, pharmceuticals, perfume, saffron, brazilwood, teak wood, ivory, pearls, silk brocade, onyx, sapphire, evony, cocnuts, camphor, sandarax resin, aloe, iron, lead, bamboo, sandalwood, glass, pepper, leather, indigo (Cornu 7)", } , 
 { "lat": 14.21069, "lon": 43.23337, "name": "Zabid", "topType": "high", "product": "other", "comment": "metropolis: clay, agricultural foods, brick, fruits, millet, sorghum, scarves, carnelians, pelts, pharmceuticals, perfume, saffron, brazilwood, teak wood, ivory, pearls, silk brocade, onyx, sapphire, evony, cocnuts, camphor, sandarax resin, aloe, iron, lead, bamboo, sandalwood, glass, pepper, leather, indigo (Cornu 7)", } , 
 { "lat": 14.21069, "lon": 43.23337, "name": "Zabid", "topType": "high", "product": "textiles", "comment": "metropolis: clay, agricultural foods, brick, fruits, millet, sorghum, scarves, carnelians, pelts, pharmceuticals, perfume, saffron, brazilwood, teak wood, ivory, pearls, silk brocade, onyx, sapphire, evony, cocnuts, camphor, sandarax resin, aloe, iron, lead, bamboo, sandalwood, glass, pepper, leather, indigo (Cornu 7)", } , 
 { "lat": 42.44515, "lon": 59.22638, "name": "al-Jurjaniyya", "topType": "low", "product": "foods", "comment": "capital: cattle (Cornu 17)", } , 
 { "lat": 38.2555, "lon": 67.88588, "name": "al-Saghaniyan", "topType": "medium", "product": "foods", "comment": "capital: brick, hunted birds, bread, meat (Cornu 17)", } , 
 { "lat": 38.2555, "lon": 67.88588, "name": "al-Saghaniyan", "topType": "medium", "product": "materials", "comment": "capital: brick, hunted birds, bread, meat (Cornu 17)", } , 
 { "lat": 39.04896, "lon": 63.51229, "name": "Amul", "topType": "high", "product": "foods", "comment": "town: grapes, grain, clothes, garlic, rice (Cornu 17)", } , 
 { "lat": 39.04896, "lon": 63.51229, "name": "Amul", "topType": "high", "product": "textiles", "comment": "town: grapes, grain, clothes, garlic, rice (Cornu 17)", } , 
 { "lat": 31.583056, "lon": 64.369167, "name": "Bust", "topType": "medium", "product": "foods", "comment": "capital: dates, grapes, lotus, basil (Cornu 17)", } , 
 { "lat": 40.44866, "lon": 62.18165, "name": "Darghan", "topType": "low", "product": "foods", "comment": "town: raisins (Cornu 17)", } , 
 { "lat": 37.6087, "lon": 67.44233, "name": "Darzanji", "topType": "low", "product": "textiles", "comment": "town: clothing (Cornu 17)", } , 
 { "lat": 34.69844, "lon": 62.94496, "name": "Dihistan", "topType": "low", "product": "materials", "comment": "town: clay (Cornu 17)", } , 
 { "lat": 39.15302, "lon": 63.6206, "name": "Firabr", "topType": "low", "product": "foods", "comment": "town: grapes (Cornu 17)", } , 
 { "lat": 33.53708, "lon": 68.40163, "name": "Ghaznin", "topType": "low", "product": "foods", "comment": "capital: fruits, wood (Cornu 17)", } , 
 { "lat": 33.53708, "lon": 68.40163, "name": "Ghaznin", "topType": "low", "product": "materials", "comment": "capital: fruits, wood (Cornu 17)", } , 
 { "lat": 34.32446, "lon": 62.14555, "name": "Harat", "topType": "high", "product": "foods", "comment": "capital: grapes, fruits, cloth, confections, stone (Cornu 17)", } , 
 { "lat": 34.32446, "lon": 62.14555, "name": "Harat", "topType": "high", "product": "materials", "comment": "capital: grapes, fruits, cloth, confections, stone (Cornu 17)", } , 
 { "lat": 34.32446, "lon": 62.14555, "name": "Harat", "topType": "high", "product": "textiles", "comment": "capital: grapes, fruits, cloth, confections, stone (Cornu 17)", } , 
 { "lat": 37.909167, "lon": 69.781944, "name": "Hulbuk", "topType": "medium", "product": "foods", "comment": "capital: horses, fruits, agricultural products (Cornu 17)", } , 
 { "lat": 37.909167, "lon": 69.781944, "name": "Hulbuk", "topType": "medium", "product": "other", "comment": "capital: horses, fruits, agricultural products (Cornu 17)", } , 
 { "lat": 34.52441, "lon": 69.16494, "name": "Kabul", "topType": "low", "product": "foods", "comment": "town: myrobalan (Cornu 17)", } , 
 { "lat": 35.20993, "lon": 62.42921, "name": "Kif", "topType": "low", "product": "foods", "comment": "town: grapes, clay (Cornu 17)", } , 
 { "lat": 35.20993, "lon": 62.42921, "name": "Kif", "topType": "low", "product": "materials", "comment": "town: grapes, clay (Cornu 17)", } , 
 { "lat": 37.67201, "lon": 62.12234, "name": "Marw", "topType": "high", "product": "foods", "comment": "metropolis: silk, cotton, cattle, cheese, sesame, copper, melons, bread, dates (Cornu 17)", } , 
 { "lat": 37.67201, "lon": 62.12234, "name": "Marw", "topType": "high", "product": "materials", "comment": "metropolis: silk, cotton, cattle, cheese, sesame, copper, melons, bread, dates (Cornu 17)", } , 
 { "lat": 37.67201, "lon": 62.12234, "name": "Marw", "topType": "high", "product": "textiles", "comment": "metropolis: silk, cotton, cattle, cheese, sesame, copper, melons, bread, dates (Cornu 17)", } , 
 { "lat": 38.84841, "lon": 65.7945, "name": "Nasaf", "topType": "low", "product": "foods", "comment": "town: grapes (Cornu 17)", } , 
 { "lat": 36.10252, "lon": 58.80347, "name": "Naysabur", "topType": "high", "product": "foods", "comment": "capital: stone, agricultural products, Turquoise, white cloth, iron, silk brocade, embroidery, clay, truffles, needles, knives, currants (Cornu 17)", } , 
 { "lat": 36.10252, "lon": 58.80347, "name": "Naysabur", "topType": "high", "product": "materials", "comment": "capital: stone, agricultural products, Turquoise, white cloth, iron, silk brocade, embroidery, clay, truffles, needles, knives, currants (Cornu 17)", } , 
 { "lat": 36.10252, "lon": 58.80347, "name": "Naysabur", "topType": "high", "product": "other", "comment": "capital: stone, agricultural products, Turquoise, white cloth, iron, silk brocade, embroidery, clay, truffles, needles, knives, currants (Cornu 17)", } , 
 { "lat": 36.10252, "lon": 58.80347, "name": "Naysabur", "topType": "high", "product": "textiles", "comment": "capital: stone, agricultural products, Turquoise, white cloth, iron, silk brocade, embroidery, clay, truffles, needles, knives, currants (Cornu 17)", } , 
 { "lat": 39.67698, "lon": 67.02199, "name": "Samarqand", "topType": "high", "product": "foods", "comment": "metropolis: silver cloth, copper pans, bottles, casks, stirrups, bits, girths, silk brocade, hazelnuts, walnuts, paper (Cornu 17)", } , 
 { "lat": 39.67698, "lon": 67.02199, "name": "Samarqand", "topType": "high", "product": "other", "comment": "metropolis: silver cloth, copper pans, bottles, casks, stirrups, bits, girths, silk brocade, hazelnuts, walnuts, paper (Cornu 17)", } , 
 { "lat": 39.67698, "lon": 67.02199, "name": "Samarqand", "topType": "high", "product": "textiles", "comment": "metropolis: silver cloth, copper pans, bottles, casks, stirrups, bits, girths, silk brocade, hazelnuts, walnuts, paper (Cornu 17)", } , 
 { "lat": 36.21079, "lon": 68.08702, "name": "Siminjan", "topType": "medium", "product": "foods", "comment": "town: fruits, cattle, hunting (Cornu 17)", } , 
 { "lat": 37.46147, "lon": 61.67621, "name": "Sinj", "topType": "low", "product": "materials", "comment": "town: stone (Cornu 17)", } , 
 { "lat": 37.2606, "lon": 67.31855, "name": "Tirmidh", "topType": "low", "product": "materials", "comment": "town: brick (Cornu 17)", } , 
 { "lat": 30.7594, "lon": 61.61613, "name": "Zaranj", "topType": "low", "product": "foods", "comment": "capital: fruits, daql date (Cornu 17)", } , 
 { "lat": 37.02772, "lon": 54.04327, "name": "Abaskun", "topType": "low", "product": "materials", "comment": "town: brick (Cornu 18)", } , 
 { "lat": 29.12318, "lon": 53.44663, "name": "Al-Ribat", "topType": "low", "product": "foods", "comment": "village: wood, foods (Cornu 18)", } , 
 { "lat": 29.12318, "lon": 53.44663, "name": "Al-Ribat", "topType": "low", "product": "materials", "comment": "village: wood, foods (Cornu 18)", } , 
 { "lat": 36.7886, "lon": 54.47005, "name": "Astarabadh", "topType": "low", "product": "textiles", "comment": "town: silk (Cornu 18)", } , 
 { "lat": 36.03626, "lon": 55.88938, "name": "Biyar", "topType": "high", "product": "foods", "comment": "town: grapes, fruit, camels, sheep, cake, clay, cloth, oil (Cornu 18)", } , 
 { "lat": 36.03626, "lon": 55.88938, "name": "Biyar", "topType": "high", "product": "materials", "comment": "town: grapes, fruit, camels, sheep, cake, clay, cloth, oil (Cornu 18)", } , 
 { "lat": 36.03626, "lon": 55.88938, "name": "Biyar", "topType": "high", "product": "other", "comment": "town: grapes, fruit, camels, sheep, cake, clay, cloth, oil (Cornu 18)", } , 
 { "lat": 36.03626, "lon": 55.88938, "name": "Biyar", "topType": "high", "product": "textiles", "comment": "town: grapes, fruit, camels, sheep, cake, clay, cloth, oil (Cornu 18)", } , 
 { "lat": 37.79153, "lon": 49.00372, "name": "Kuhan Rudh", "topType": "low", "product": "materials", "comment": "town: stone, wood (Cornu 18)", } , 
 { "lat": 42.6693, "lon": 47.33054, "name": "Samandar", "topType": "medium", "product": "foods", "comment": "town: grapes, wood, reeds, fish (Cornu 18)", } , 
 { "lat": 42.6693, "lon": 47.33054, "name": "Samandar", "topType": "medium", "product": "materials", "comment": "town: grapes, wood, reeds, fish (Cornu 18)", } , 
 { "lat": 42.6693, "lon": 47.33054, "name": "Samandar", "topType": "medium", "product": "other", "comment": "town: grapes, wood, reeds, fish (Cornu 18)", } , 
 { "lat": 37.19091, "lon": 55.206, "name": "Shahrastan", "topType": "high", "product": "foods", "comment": "metropolis: fruits, olives, pomegranates, figs, watermelons, confections, eggplants, orange, fish (Cornu 18)", } , 
 { "lat": 38.92386, "lon": 42.47598, "name": "Akhlat", "topType": "low", "product": "materials", "comment": "town: adobe (Cornu 18)", } , 
 { "lat": 40.67871, "lon": 48.68505, "name": "Al-Shamakhiya", "topType": "medium", "product": "foods", "comment": "town: stone, plaster, fruits (Cornu 18)", } , 
 { "lat": 40.67871, "lon": 48.68505, "name": "Al-Shamakhiya", "topType": "medium", "product": "materials", "comment": "town: stone, plaster, fruits (Cornu 18)", } , 
 { "lat": 38.23604, "lon": 48.30651, "name": "Ardabil", "topType": "low", "product": "foods", "comment": "metropolis: clay, fruits (Cornu 18)", } , 
 { "lat": 38.23604, "lon": 48.30651, "name": "Ardabil", "topType": "low", "product": "materials", "comment": "metropolis: clay, fruits (Cornu 18)", } , 
 { "lat": 42.18157, "lon": 48.31477, "name": "Bab al-Abwab", "topType": "high", "product": "foods", "comment": "town: stone, fish, cotton cloth, saffron, mules (Cornu 18)", } , 
 { "lat": 42.18157, "lon": 48.31477, "name": "Bab al-Abwab", "topType": "high", "product": "materials", "comment": "town: stone, fish, cotton cloth, saffron, mules (Cornu 18)", } , 
 { "lat": 42.18157, "lon": 48.31477, "name": "Bab al-Abwab", "topType": "high", "product": "other", "comment": "town: stone, fish, cotton cloth, saffron, mules (Cornu 18)", } , 
 { "lat": 42.18157, "lon": 48.31477, "name": "Bab al-Abwab", "topType": "high", "product": "textiles", "comment": "town: stone, fish, cotton cloth, saffron, mules (Cornu 18)", } , 
 { "lat": 40.45334, "lon": 47.23624, "name": "Bardhaa", "topType": "high", "product": "foods", "comment": "capital: brick, plaster, fruits, wood, gypsum, silk, curtains, mules, dyes, figs, sheep, acorns (Cornu 18)", } , 
 { "lat": 40.45334, "lon": 47.23624, "name": "Bardhaa", "topType": "high", "product": "materials", "comment": "capital: brick, plaster, fruits, wood, gypsum, silk, curtains, mules, dyes, figs, sheep, acorns (Cornu 18)", } , 
 { "lat": 40.45334, "lon": 47.23624, "name": "Bardhaa", "topType": "high", "product": "other", "comment": "capital: brick, plaster, fruits, wood, gypsum, silk, curtains, mules, dyes, figs, sheep, acorns (Cornu 18)", } , 
 { "lat": 40.45334, "lon": 47.23624, "name": "Bardhaa", "topType": "high", "product": "textiles", "comment": "capital: brick, plaster, fruits, wood, gypsum, silk, curtains, mules, dyes, figs, sheep, acorns (Cornu 18)", } , 
 { "lat": 39.86701, "lon": 47.46081, "name": "Baylaqan", "topType": "low", "product": "foods", "comment": "town: sweetmeats (Cornu 18)", } , 
 { "lat": 40.16468, "lon": 44.68562, "name": "Dabil", "topType": "medium", "product": "materials", "comment": "town: wool cloth, clay, stone, cushions (Cornu 18)", } , 
 { "lat": 40.16468, "lon": 44.68562, "name": "Dabil", "topType": "medium", "product": "textiles", "comment": "town: wool cloth, clay, stone, cushions (Cornu 18)", } , 
 { "lat": 37.34276, "lon": 46.24758, "name": "Maragha", "topType": "low", "product": "materials", "comment": "town: clay (Cornu 18)", } , 
 { "lat": 38.22277, "lon": 44.82832, "name": "Salamas", "topType": "low", "product": "materials", "comment": "town: stone, adobe (Cornu 18)", } , 
 { "lat": 41.11585, "lon": 48.75339, "name": "Shirwan", "topType": "low", "product": "materials", "comment": "town: stone (Cornu 18)", } , 
 { "lat": 38.06387, "lon": 46.33121, "name": "Tabriz", "topType": "low", "product": "foods", "comment": "town: fruits (Cornu 18)", } , 
 { "lat": 42.0841, "lon": 44.83734, "name": "Tiflis", "topType": "low", "product": "materials", "comment": "town: stone, wood (Cornu 18)", } , 
 { "lat": 35.60216, "lon": 51.52048, "name": "Al-Rayy", "topType": "high", "product": "foods", "comment": "town: fruits, grains, barley beer, cloth, melons, cows, plums (Cornu 18)", } , 
 { "lat": 35.60216, "lon": 51.52048, "name": "Al-Rayy", "topType": "high", "product": "textiles", "comment": "town: fruits, grains, barley beer, cloth, melons, cows, plums (Cornu 18)", } , 
 { "lat": 30.39947, "lon": 56.02186, "name": "Al-Rudha", "topType": "low", "product": "foods", "comment": "town: almonds (Cornu 18)", } , 
 { "lat": 35.92522, "lon": 64.83649, "name": "Al-Yahudiyya", "topType": "medium", "product": "foods", "comment": "capital: fruits, cloth, cattle, clay (Cornu 18)", } , 
 { "lat": 35.92522, "lon": 64.83649, "name": "Al-Yahudiyya", "topType": "medium", "product": "materials", "comment": "capital: fruits, cloth, cattle, clay (Cornu 18)", } , 
 { "lat": 35.92522, "lon": 64.83649, "name": "Al-Yahudiyya", "topType": "medium", "product": "textiles", "comment": "capital: fruits, cloth, cattle, clay (Cornu 18)", } , 
 { "lat": 34.78374, "lon": 48.63117, "name": "Hamadhan", "topType": "medium", "product": "foods", "comment": "metropolis: bread, confectionary, meats, clay, cloth, saffron, tin, fox skins, sable skins, boots, cheeses (Cornu 18)", } , 
 { "lat": 34.78374, "lon": 48.63117, "name": "Hamadhan", "topType": "medium", "product": "other", "comment": "metropolis: bread, confectionary, meats, clay, cloth, saffron, tin, fox skins, sable skins, boots, cheeses (Cornu 18)", } , 
 { "lat": 34.78374, "lon": 48.63117, "name": "Hamadhan", "topType": "medium", "product": "textiles", "comment": "metropolis: bread, confectionary, meats, clay, cloth, saffron, tin, fox skins, sable skins, boots, cheeses (Cornu 18)", } , 
 { "lat": 33.96725, "lon": 51.57108, "name": "Qashan", "topType": "medium", "product": "foods", "comment": "town: long-necked bottles, tarragon, plums (Cornu 18)", } , 
 { "lat": 33.96725, "lon": 51.57108, "name": "Qashan", "topType": "medium", "product": "other", "comment": "town: long-necked bottles, tarragon, plums (Cornu 18)", } , 
 { "lat": 36.26165, "lon": 50.00135, "name": "Qazwin", "topType": "high", "product": "foods", "comment": "town: grapes, garments, leather sacks, arrows, mint (Cornu 18)", } , 
 { "lat": 36.26165, "lon": 50.00135, "name": "Qazwin", "topType": "high", "product": "other", "comment": "town: grapes, garments, leather sacks, arrows, mint (Cornu 18)", } , 
 { "lat": 36.26165, "lon": 50.00135, "name": "Qazwin", "topType": "high", "product": "textiles", "comment": "town: grapes, garments, leather sacks, arrows, mint (Cornu 18)", } , 
 { "lat": 26.58418, "lon": 31.74378, "name": "Akhmim", "topType": "medium", "product": "foods", "comment": "town: dates, grapes, agricultural products (Cornu 10/11)", } , 
 { "lat": 31.35567, "lon": 51.81266, "name": "Sumayram", "topType": "low", "product": "foods", "comment": "town: walnuts, fruits (Cornu 18)", } , 
 { "lat": 30.53687, "lon": 31.70607, "name": "al-'Abbasiyya (al-'Abbasa)", "topType": "high", "product": "foods", "comment": "capital: brick, leather, skins, leggings, cloth, camelshair, goat wool, reed pens, vitriol, marble, vinegar, canvas, linen, shoes, geese, plantains, wax, sugar candy, dyes, apparel, spun yarn, waterskins, harisa (meat dish), nayda (pastry), chick peas, lupine, clover, arum, mats, asses, cattle, girdles, cheese, confection, fish, Colocasia (radish), banana, sycamore fig, lupine fruit, lotus fruit, marzipan, balsam oil (Cornu 10/11)", } , 
 { "lat": 30.53687, "lon": 31.70607, "name": "al-'Abbasiyya (al-'Abbasa)", "topType": "high", "product": "materials", "comment": "capital: brick, leather, skins, leggings, cloth, camelshair, goat wool, reed pens, vitriol, marble, vinegar, canvas, linen, shoes, geese, plantains, wax, sugar candy, dyes, apparel, spun yarn, waterskins, harisa (meat dish), nayda (pastry), chick peas, lupine, clover, arum, mats, asses, cattle, girdles, cheese, confection, fish, Colocasia (radish), banana, sycamore fig, lupine fruit, lotus fruit, marzipan, balsam oil (Cornu 10/11)", } , 
 { "lat": 30.53687, "lon": 31.70607, "name": "al-'Abbasiyya (al-'Abbasa)", "topType": "high", "product": "other", "comment": "capital: brick, leather, skins, leggings, cloth, camelshair, goat wool, reed pens, vitriol, marble, vinegar, canvas, linen, shoes, geese, plantains, wax, sugar candy, dyes, apparel, spun yarn, waterskins, harisa (meat dish), nayda (pastry), chick peas, lupine, clover, arum, mats, asses, cattle, girdles, cheese, confection, fish, Colocasia (radish), banana, sycamore fig, lupine fruit, lotus fruit, marzipan, balsam oil (Cornu 10/11)", } , 
 { "lat": 30.53687, "lon": 31.70607, "name": "al-'Abbasiyya (al-'Abbasa)", "topType": "high", "product": "textiles", "comment": "capital: brick, leather, skins, leggings, cloth, camelshair, goat wool, reed pens, vitriol, marble, vinegar, canvas, linen, shoes, geese, plantains, wax, sugar candy, dyes, apparel, spun yarn, waterskins, harisa (meat dish), nayda (pastry), chick peas, lupine, clover, arum, mats, asses, cattle, girdles, cheese, confection, fish, Colocasia (radish), banana, sycamore fig, lupine fruit, lotus fruit, marzipan, balsam oil (Cornu 10/11)", } , 
 { "lat": 23.02957, "lon": 32.89773, "name": "Al-'Allaqi", "topType": "high", "product": "foods", "comment": "town: wood, fruits, sheep, livestock, rice, wool, dates, vinegar, raisins, grapes (Cornu 10/11)", } , 
 { "lat": 23.02957, "lon": 32.89773, "name": "Al-'Allaqi", "topType": "high", "product": "materials", "comment": "town: wood, fruits, sheep, livestock, rice, wool, dates, vinegar, raisins, grapes (Cornu 10/11)", } , 
 { "lat": 23.02957, "lon": 32.89773, "name": "Al-'Allaqi", "topType": "high", "product": "textiles", "comment": "town: wood, fruits, sheep, livestock, rice, wool, dates, vinegar, raisins, grapes (Cornu 10/11)", } , 
 { "lat": 31.13051, "lon": 33.805, "name": "al-'Arish", "topType": "low", "product": "foods", "comment": "town: dates, gold (Cornu 10/11)", } , 
 { "lat": 31.13051, "lon": 33.805, "name": "al-'Arish", "topType": "low", "product": "other", "comment": "town: dates, gold (Cornu 10/11)", } , 
 { "lat": 31.02207, "lon": 32.60098, "name": "al-Farama", "topType": "high", "product": "foods", "comment": "capital: quail, fish, agricultural foods, dates, baskets, ropes, cloth, wraps, canvas, maps, grains, grass peas, rapeseed oil, jasmine (Cornu 10/11)", } , 
 { "lat": 31.02207, "lon": 32.60098, "name": "al-Farama", "topType": "high", "product": "other", "comment": "capital: quail, fish, agricultural foods, dates, baskets, ropes, cloth, wraps, canvas, maps, grains, grass peas, rapeseed oil, jasmine (Cornu 10/11)", } , 
 { "lat": 31.02207, "lon": 32.60098, "name": "al-Farama", "topType": "high", "product": "textiles", "comment": "capital: quail, fish, agricultural foods, dates, baskets, ropes, cloth, wraps, canvas, maps, grains, grass peas, rapeseed oil, jasmine (Cornu 10/11)", } , 
 { "lat": 29.35732, "lon": 30.84084, "name": "al-Fayyum", "topType": "high", "product": "foods", "comment": "town: rice, cotton, linen, wool, dates, vinegar, raisins (Cornu 10/11)", } , 
 { "lat": 29.35732, "lon": 30.84084, "name": "al-Fayyum", "topType": "high", "product": "textiles", "comment": "town: rice, cotton, linen, wool, dates, vinegar, raisins (Cornu 10/11)", } , 
 { "lat": 30.04236, "lon": 31.24793, "name": "al-Fustat", "topType": "high", "product": "foods", "comment": "metropolis: leather, skins, leggings, cloth, camelshair, goat wool, reed pens, vitriol, marble, vinegar, canvas, linen, shoes, geese, plantains, wax, sugar candy, dyes, apparel, spun yarn, waterskins, harisa (meat dish), nayda (pastry), chick peas, lupine, clover, arum, mats, asses, cattle, girdles, cheese, confection, fish, Colocasia (radish), bananas, sycamore fig, lupine fruit, lotus fruit, marzipan, balsam oil, vegetables, firewood,  (Cornu 10/11)", } , 
 { "lat": 30.04236, "lon": 31.24793, "name": "al-Fustat", "topType": "high", "product": "materials", "comment": "metropolis: leather, skins, leggings, cloth, camelshair, goat wool, reed pens, vitriol, marble, vinegar, canvas, linen, shoes, geese, plantains, wax, sugar candy, dyes, apparel, spun yarn, waterskins, harisa (meat dish), nayda (pastry), chick peas, lupine, clover, arum, mats, asses, cattle, girdles, cheese, confection, fish, Colocasia (radish), bananas, sycamore fig, lupine fruit, lotus fruit, marzipan, balsam oil, vegetables, firewood,  (Cornu 10/11)", } , 
 { "lat": 30.04236, "lon": 31.24793, "name": "al-Fustat", "topType": "high", "product": "other", "comment": "metropolis: leather, skins, leggings, cloth, camelshair, goat wool, reed pens, vitriol, marble, vinegar, canvas, linen, shoes, geese, plantains, wax, sugar candy, dyes, apparel, spun yarn, waterskins, harisa (meat dish), nayda (pastry), chick peas, lupine, clover, arum, mats, asses, cattle, girdles, cheese, confection, fish, Colocasia (radish), bananas, sycamore fig, lupine fruit, lotus fruit, marzipan, balsam oil, vegetables, firewood,  (Cornu 10/11)", } , 
 { "lat": 30.04236, "lon": 31.24793, "name": "al-Fustat", "topType": "high", "product": "textiles", "comment": "metropolis: leather, skins, leggings, cloth, camelshair, goat wool, reed pens, vitriol, marble, vinegar, canvas, linen, shoes, geese, plantains, wax, sugar candy, dyes, apparel, spun yarn, waterskins, harisa (meat dish), nayda (pastry), chick peas, lupine, clover, arum, mats, asses, cattle, girdles, cheese, confection, fish, Colocasia (radish), bananas, sycamore fig, lupine fruit, lotus fruit, marzipan, balsam oil, vegetables, firewood,  (Cornu 10/11)", } , 
 { "lat": 31.21021, "lon": 29.89004, "name": "al-Iskandariyya", "topType": "high", "product": "foods", "comment": "capital: leather, skins, leggings, cloth, camelshair, goat wool, reed pens, vitriol, marble, vinegar, canvas, linen, shoes, geese, plantains, wax, sugar candy, dyes, apparel, spun yarn, waterskins, harisa (meat dish), nayda (pastry), chick peas, lupine, clover, arum, mats, asses, cattle, girdles, cheese, confection, fish, Colocasia (radish), bananas, sycamore fig, lupine fruit, lotus fruit, marzipan, balsam oil, grapes, marble, stone, locust, olives, almonds (Cornu 10/11)", } , 
 { "lat": 31.21021, "lon": 29.89004, "name": "al-Iskandariyya", "topType": "high", "product": "materials", "comment": "capital: leather, skins, leggings, cloth, camelshair, goat wool, reed pens, vitriol, marble, vinegar, canvas, linen, shoes, geese, plantains, wax, sugar candy, dyes, apparel, spun yarn, waterskins, harisa (meat dish), nayda (pastry), chick peas, lupine, clover, arum, mats, asses, cattle, girdles, cheese, confection, fish, Colocasia (radish), bananas, sycamore fig, lupine fruit, lotus fruit, marzipan, balsam oil, grapes, marble, stone, locust, olives, almonds (Cornu 10/11)", } , 
 { "lat": 31.21021, "lon": 29.89004, "name": "al-Iskandariyya", "topType": "high", "product": "other", "comment": "capital: leather, skins, leggings, cloth, camelshair, goat wool, reed pens, vitriol, marble, vinegar, canvas, linen, shoes, geese, plantains, wax, sugar candy, dyes, apparel, spun yarn, waterskins, harisa (meat dish), nayda (pastry), chick peas, lupine, clover, arum, mats, asses, cattle, girdles, cheese, confection, fish, Colocasia (radish), bananas, sycamore fig, lupine fruit, lotus fruit, marzipan, balsam oil, grapes, marble, stone, locust, olives, almonds (Cornu 10/11)", } , 
 { "lat": 31.21021, "lon": 29.89004, "name": "al-Iskandariyya", "topType": "high", "product": "textiles", "comment": "capital: leather, skins, leggings, cloth, camelshair, goat wool, reed pens, vitriol, marble, vinegar, canvas, linen, shoes, geese, plantains, wax, sugar candy, dyes, apparel, spun yarn, waterskins, harisa (meat dish), nayda (pastry), chick peas, lupine, clover, arum, mats, asses, cattle, girdles, cheese, confection, fish, Colocasia (radish), bananas, sycamore fig, lupine fruit, lotus fruit, marzipan, balsam oil, grapes, marble, stone, locust, olives, almonds (Cornu 10/11)", } , 
 { "lat": 30.00712, "lon": 31.20101, "name": "al-Jiza", "topType": "low", "product": "materials", "comment": "town: iron (Cornu 10/11)", } , 
 { "lat": 30.97564, "lon": 31.14305, "name": "al-Mahallat al-Kabira", "topType": "low", "product": "materials", "comment": "town: oil, wood (Cornu 10/11)", } , 
 { "lat": 30.97564, "lon": 31.14305, "name": "al-Mahallat al-Kabira", "topType": "low", "product": "other", "comment": "town: oil, wood (Cornu 10/11)", } , 
 { "lat": 30.02922, "lon": 32.55613, "name": "al-Qulzum", "topType": "low", "product": "foods", "comment": "town: billy goats (Cornu 10/11)", } , 
 { "lat": 25.866667, "lon": 34.083333, "name": "al-Warrada", "topType": "low", "product": "foods", "comment": "town: dates (Cornu 10/11)", } , 
 { "lat": 30.13132, "lon": 31.30864, "name": "Ayn Shams", "topType": "low", "product": "foods", "comment": "town: agricultural foods (Cornu 10/11)", } , 
 { "lat": 28.60254, "lon": 30.66489, "name": "Bahnasa", "topType": "low", "product": "textiles", "comment": "town: curtains, coverlets (Cornu 10/11)", } , 
 { "lat": 30.42151, "lon": 31.56946, "name": "Bilbays", "topType": "high", "product": "foods", "comment": "capital: mud, agricultural foods, leather, skins, leggings, cloth, camelshair, goat wool, reed pens, vitriol, marble, vinegar, canvas, linen, shoes, geese, plantains, wax, sugar candy, dyes, apparel, spun yarn, waterskins, harisa (meat dish), nayda (pastry), chick peas, lupine, clover, arum, mats, asses, cattle, girdles, cheese, confection, fish, Colocasia (radish), bananas, sycamore fig, lupine fruit, lotus fruit, marzipan, balsam oil (Cornu 10/11)", } , 
 { "lat": 30.42151, "lon": 31.56946, "name": "Bilbays", "topType": "high", "product": "materials", "comment": "capital: mud, agricultural foods, leather, skins, leggings, cloth, camelshair, goat wool, reed pens, vitriol, marble, vinegar, canvas, linen, shoes, geese, plantains, wax, sugar candy, dyes, apparel, spun yarn, waterskins, harisa (meat dish), nayda (pastry), chick peas, lupine, clover, arum, mats, asses, cattle, girdles, cheese, confection, fish, Colocasia (radish), bananas, sycamore fig, lupine fruit, lotus fruit, marzipan, balsam oil (Cornu 10/11)", } , 
 { "lat": 30.42151, "lon": 31.56946, "name": "Bilbays", "topType": "high", "product": "other", "comment": "capital: mud, agricultural foods, leather, skins, leggings, cloth, camelshair, goat wool, reed pens, vitriol, marble, vinegar, canvas, linen, shoes, geese, plantains, wax, sugar candy, dyes, apparel, spun yarn, waterskins, harisa (meat dish), nayda (pastry), chick peas, lupine, clover, arum, mats, asses, cattle, girdles, cheese, confection, fish, Colocasia (radish), bananas, sycamore fig, lupine fruit, lotus fruit, marzipan, balsam oil (Cornu 10/11)", } , 
 { "lat": 30.42151, "lon": 31.56946, "name": "Bilbays", "topType": "high", "product": "textiles", "comment": "capital: mud, agricultural foods, leather, skins, leggings, cloth, camelshair, goat wool, reed pens, vitriol, marble, vinegar, canvas, linen, shoes, geese, plantains, wax, sugar candy, dyes, apparel, spun yarn, waterskins, harisa (meat dish), nayda (pastry), chick peas, lupine, clover, arum, mats, asses, cattle, girdles, cheese, confection, fish, Colocasia (radish), bananas, sycamore fig, lupine fruit, lotus fruit, marzipan, balsam oil (Cornu 10/11)", } , 
 { "lat": 29.27671, "lon": 31.10717, "name": "Busir", "topType": "medium", "product": "foods", "comment": "town: flax, cotton, shrimp (Cornu 10/11)", } , 
 { "lat": 29.27671, "lon": 31.10717, "name": "Busir", "topType": "medium", "product": "textiles", "comment": "town: flax, cotton, shrimp (Cornu 10/11)", } , 
 { "lat": 31.14114, "lon": 31.35004, "name": "Damira", "topType": "low", "product": "foods", "comment": "town: melons (Cornu 10/11)", } , 
 { "lat": 31.43948, "lon": 31.79163, "name": "Dimyat (Damietta)", "topType": "medium", "product": "foods", "comment": "town: fruits, wood, cloths, stone (Cornu 10/11)", } , 
 { "lat": 31.43948, "lon": 31.79163, "name": "Dimyat (Damietta)", "topType": "medium", "product": "materials", "comment": "town: fruits, wood, cloths, stone (Cornu 10/11)", } , 
 { "lat": 31.43948, "lon": 31.79163, "name": "Dimyat (Damietta)", "topType": "medium", "product": "textiles", "comment": "town: fruits, wood, cloths, stone (Cornu 10/11)", } , 
 { "lat": 29.86002, "lon": 31.29899, "name": "Hulwan", "topType": "low", "product": "materials", "comment": "town: stone (Cornu 10/11)", } , 
 { "lat": 30.36675, "lon": 31.3735, "name": "Mashtul", "topType": "medium", "product": "foods", "comment": "town: flour, biscuits, grains (Cornu 10/11)", } , 
 { "lat": 31.40769, "lon": 31.87098, "name": "Shata", "topType": "low", "product": "textiles", "comment": "village: cloth (Cornu 10/11)", } , 
 { "lat": 28.2737, "lon": 30.69111, "name": "Taha", "topType": "low", "product": "textiles", "comment": "village: cloth, wool (Cornu 10/11)", } , 
 { "lat": 31.21434, "lon": 32.22632, "name": "Tinnis", "topType": "low", "product": "textiles", "comment": "town: colored cloth, garments (Cornu 10/11)", } , 
 { "lat": 24.11005, "lon": 33.01102, "name": "Uswan", "topType": "high", "product": "foods", "comment": "capital: rice, wool, dates, vinegar, raisins, grapes, palm wood (Cornu 10/11)", } , 
 { "lat": 24.11005, "lon": 33.01102, "name": "Uswan", "topType": "high", "product": "materials", "comment": "capital: rice, wool, dates, vinegar, raisins, grapes, palm wood (Cornu 10/11)", } , 
 { "lat": 35.57479, "lon": 10.92962, "name": "al-Mahdiyya", "topType": "medium", "product": "foods", "comment": "town: stone, lime, grains (Cornu 12)", } , 
 { "lat": 35.57479, "lon": 10.92962, "name": "al-Mahdiyya", "topType": "medium", "product": "materials", "comment": "town: stone, lime, grains (Cornu 12)", } , 
 { "lat": 35.7646, "lon": 10.06583, "name": "al-Qayrawan (Kayrouan)", "topType": "high", "product": "foods", "comment": "metropolis: olive oil, pistachios, saffron, almonds, plums, satchels, leather mats, waterskins, bread, meats, fruits, figs, raisins, dates, grapes, clay, brick, marble, lead, cloth, dye, spears (Cornu 12)", } , 
 { "lat": 35.7646, "lon": 10.06583, "name": "al-Qayrawan (Kayrouan)", "topType": "high", "product": "materials", "comment": "metropolis: olive oil, pistachios, saffron, almonds, plums, satchels, leather mats, waterskins, bread, meats, fruits, figs, raisins, dates, grapes, clay, brick, marble, lead, cloth, dye, spears (Cornu 12)", } , 
 { "lat": 35.7646, "lon": 10.06583, "name": "al-Qayrawan (Kayrouan)", "topType": "high", "product": "other", "comment": "metropolis: olive oil, pistachios, saffron, almonds, plums, satchels, leather mats, waterskins, bread, meats, fruits, figs, raisins, dates, grapes, clay, brick, marble, lead, cloth, dye, spears (Cornu 12)", } , 
 { "lat": 35.7646, "lon": 10.06583, "name": "al-Qayrawan (Kayrouan)", "topType": "high", "product": "textiles", "comment": "metropolis: olive oil, pistachios, saffron, almonds, plums, satchels, leather mats, waterskins, bread, meats, fruits, figs, raisins, dates, grapes, clay, brick, marble, lead, cloth, dye, spears (Cornu 12)", } , 
 { "lat": 34.83429, "lon": 10.69597, "name": "Asfaqus (Sfax)", "topType": "low", "product": "materials", "comment": "town: lime, stone (Cornu 12)", } , 
 { "lat": 37.31745, "lon": 9.70474, "name": "Banzard (Bizerta)", "topType": "low", "product": "materials", "comment": "town: stone (Cornu 12)", } , 
 { "lat": 36.88829, "lon": 7.72936, "name": "Buna (Bone)", "topType": "low", "product": "materials", "comment": "town: iron (Cornu 12)", } , 
 { "lat": 34.06361, "lon": -5.02917, "name": "Fas", "topType": "high", "product": "foods", "comment": "capital: dates, olive oil, pistachios, saffron, almonds, plums, satchels, leather mats, waterskins, clay, brick, agricultural foods, figs, olives (Cornu 12)", } , 
 { "lat": 34.06361, "lon": -5.02917, "name": "Fas", "topType": "high", "product": "materials", "comment": "capital: dates, olive oil, pistachios, saffron, almonds, plums, satchels, leather mats, waterskins, clay, brick, agricultural foods, figs, olives (Cornu 12)", } , 
 { "lat": 36.83448, "lon": 10.77562, "name": "Manzil Bashu", "topType": "low", "product": "foods", "comment": "town: clay, agricultural foods (Cornu 12)", } , 
 { "lat": 36.83448, "lon": 10.77562, "name": "Manzil Bashu", "topType": "low", "product": "materials", "comment": "town: clay, agricultural foods (Cornu 12)", } , 
 { "lat": 36.74092, "lon": 3.58036, "name": "Marsa al-Dajjaj", "topType": "low", "product": "materials", "comment": "town: brick (Cornu 12)", } , 
 { "lat": 36.87697, "lon": 8.38782, "name": "Marsa al-Kharaz", "topType": "medium", "product": "materials", "comment": "town: coral, wood, ropes (Cornu 12)", } , 
 { "lat": 36.87697, "lon": 8.38782, "name": "Marsa al-Kharaz", "topType": "medium", "product": "other", "comment": "town: coral, wood, ropes (Cornu 12)", } , 
 { "lat": 35.56327, "lon": 5.72567, "name": "Niqawus", "topType": "low", "product": "foods", "comment": "town: walnuts, fruits (Cornu 12)", } , 
 { "lat": 33.86395, "lon": 10.06583, "name": "Qabis (Gabes)", "topType": "high", "product": "foods", "comment": "town: palm wood, grapes, apples, stone, brick (Cornu 12)", } , 
 { "lat": 33.86395, "lon": 10.06583, "name": "Qabis (Gabes)", "topType": "high", "product": "materials", "comment": "town: palm wood, grapes, apples, stone, brick (Cornu 12)", } , 
 { "lat": 31.28082, "lon": -4.23619, "name": "Sijilmasa", "topType": "high", "product": "foods", "comment": "capital: dates, grapes, raisins, fruits, grains, pomegranates, agricultural foods, gold, silver (Cornu 12)", } , 
 { "lat": 31.28082, "lon": -4.23619, "name": "Sijilmasa", "topType": "high", "product": "other", "comment": "capital: dates, grapes, raisins, fruits, grains, pomegranates, agricultural foods, gold, silver (Cornu 12)", } , 
 { "lat": 36.36554, "lon": 3.91313, "name": "Suq Hamza", "topType": "low", "product": "materials", "comment": "town: clay (Cornu 12)", } , 
 { "lat": 35.88516, "lon": 10.49773, "name": "Susa (Sousse)", "topType": "low", "product": "materials", "comment": "town: lime, stone (Cornu 12)", } , 
 { "lat": 35.36143, "lon": 1.35718, "name": "Tahart", "topType": "high", "product": "foods", "comment": "capital: stone, lime, olive oil, pistachios, saffron, almonds, plums, satchels, leather mats, waterskins (Cornu 12)", } , 
 { "lat": 35.36143, "lon": 1.35718, "name": "Tahart", "topType": "high", "product": "materials", "comment": "capital: stone, lime, olive oil, pistachios, saffron, almonds, plums, satchels, leather mats, waterskins (Cornu 12)", } , 
 { "lat": 35.36143, "lon": 1.35718, "name": "Tahart", "topType": "high", "product": "other", "comment": "capital: stone, lime, olive oil, pistachios, saffron, almonds, plums, satchels, leather mats, waterskins (Cornu 12)", } , 
 { "lat": 38.11137, "lon": 13.34397, "name": "Balarm (Palmero)", "topType": "high", "product": "foods", "comment": "capital: garments, ammonia, stone, mortar, grains, fruits, agricultural foods, grapes (Cornu 15)", } , 
 { "lat": 38.11137, "lon": 13.34397, "name": "Balarm (Palmero)", "topType": "high", "product": "materials", "comment": "capital: garments, ammonia, stone, mortar, grains, fruits, agricultural foods, grapes (Cornu 15)", } , 
 { "lat": 38.11137, "lon": 13.34397, "name": "Balarm (Palmero)", "topType": "high", "product": "other", "comment": "capital: garments, ammonia, stone, mortar, grains, fruits, agricultural foods, grapes (Cornu 15)", } , 
 { "lat": 38.11137, "lon": 13.34397, "name": "Balarm (Palmero)", "topType": "high", "product": "textiles", "comment": "capital: garments, ammonia, stone, mortar, grains, fruits, agricultural foods, grapes (Cornu 15)", } , 
 { "lat": 38.03334, "lon": 13.11209, "name": "Bartiniq (Portinico)", "topType": "low", "product": "materials", "comment": "town: stone (Cornu 15)", } , 
 { "lat": 37.29211, "lon": 15.02375, "name": "Lantini", "topType": "low", "product": "materials", "comment": "town: stone (Cornu 15)", } , 
 { "lat": 37.86445, "lon": 15.27687, "name": "Tabarmin (Taormina)", "topType": "low", "product": "materials", "comment": "town: stone (Cornu 15)", } , 
 { "lat": 37.92032, "lon": -4.07157, "name": "Arjuna", "topType": "low", "product": "foods", "comment": "town: grains (Cornu 14)", } , 
 { "lat": 37.46371, "lon": -4.22026, "name": "Bayghu (Priego)", "topType": "medium", "product": "foods", "comment": "town: flour, mulberry, olives, figs (Cornu 14)", } , 
 { "lat": 37.20757, "lon": -3.60782, "name": "Gharnata (Granada)", "topType": "low", "product": "foods", "comment": "town: fruits, agricultural foods (Cornu 14)", } , 
 { "lat": 37.87842, "lon": -4.23442, "name": "Hisn Bulkuna", "topType": "medium", "product": "foods", "comment": "town: olives, wood, stone (Cornu 14)", } , 
 { "lat": 37.87842, "lon": -4.23442, "name": "Hisn Bulkuna", "topType": "medium", "product": "materials", "comment": "town: olives, wood, stone (Cornu 14)", } , 
 { "lat": 39.82189, "lon": -3.64322, "name": "Mantisha (Mentesa)", "topType": "low", "product": "foods", "comment": "town: olives, figs (Cornu 14)", } , 
 { "lat": 37.74697, "lon": -4.00431, "name": "Martush", "topType": "low", "product": "foods", "comment": "town: grapes (Cornu 14)", } , 
 { "lat": 37.99289, "lon": -3.89811, "name": "Qastalla", "topType": "medium", "product": "foods", "comment": "town: wood, olives, grapes (Cornu 14)", } , 
 { "lat": 37.99289, "lon": -3.89811, "name": "Qastalla", "topType": "medium", "product": "materials", "comment": "town: wood, olives, grapes (Cornu 14)", } , 
 { "lat": 37.9259, "lon": -4.79375, "name": "Qurtuba (Cordoba)", "topType": "low", "product": "other", "comment": "capital: henna (Cornu 14)", } , 
 { "lat": 37.87562, "lon": -3.36709, "name": "Shawdhar", "topType": "low", "product": "foods", "comment": "town: olives, clay (Cornu 14)", } , 
 { "lat": 37.87562, "lon": -3.36709, "name": "Shawdhar", "topType": "low", "product": "materials", "comment": "town: olives, clay (Cornu 14)", } , 
 { "lat": 31.32964, "lon": 48.69258, "name": "Al-Ahwaz", "topType": "medium", "product": "foods", "comment": "metropolis: breads, silks, clothes, grain (Cornu 4/6/19)", } , 
 { "lat": 31.32964, "lon": 48.69258, "name": "Al-Ahwaz", "topType": "medium", "product": "textiles", "comment": "metropolis: breads, silks, clothes, grain (Cornu 4/6/19)", } , 
 { "lat": 31.66739, "lon": 48.89816, "name": "Al-Askar", "topType": "medium", "product": "foods", "comment": "capital: fruits, confections, bread, silk veils, hemp, scarves, durable cloth (Cornu 4/6/19)", } , 
 { "lat": 31.66739, "lon": 48.89816, "name": "Al-Askar", "topType": "medium", "product": "textiles", "comment": "capital: fruits, confections, bread, silk veils, hemp, scarves, durable cloth (Cornu 4/6/19)", } , 
 { "lat": 30.81201, "lon": 48.92544, "name": "Al-Dawraq", "topType": "low", "product": "foods", "comment": "capital: agricultural foods, canvas (Cornu 4/6/19)", } , 
 { "lat": 30.81201, "lon": 48.92544, "name": "Al-Dawraq", "topType": "low", "product": "textiles", "comment": "capital: agricultural foods, canvas (Cornu 4/6/19)", } , 
 { "lat": 32.55248, "lon": 48.3311, "name": "Al-Lur", "topType": "low", "product": "foods", "comment": "town: dates, sugar (Cornu 4/6/19)", } , 
 { "lat": 32.20443, "lon": 48.26043, "name": "Al-Sus", "topType": "medium", "product": "foods", "comment": "capital: breads, confections, sugarcane, cloth, silk (Cornu 4/6/19)", } , 
 { "lat": 32.20443, "lon": 48.26043, "name": "Al-Sus", "topType": "medium", "product": "textiles", "comment": "capital: breads, confections, sugarcane, cloth, silk (Cornu 4/6/19)", } , 
 { "lat": 31.99675, "lon": 48.30343, "name": "Basinna", "topType": "low", "product": "textiles", "comment": "town: textiles, curtains (Cornu 4/6/19)", } , 
 { "lat": 32.06335, "lon": 47.9038, "name": "Bayrut", "topType": "low", "product": "foods", "comment": "town: dates (Cornu 4/6/19)", } , 
 { "lat": 31.85642, "lon": 49.87192, "name": "Idhaj", "topType": "low", "product": "foods", "comment": "town: melons, agricultural foods (Cornu 4/6/19)", } , 
 { "lat": 32.29988, "lon": 48.54101, "name": "Jundaysabur", "topType": "low", "product": "foods", "comment": "town: sugar, dates, rice, pickles (Cornu 4/6/19)", } , 
 { "lat": 31.47892, "lon": 50.23939, "name": "Kuzuk", "topType": "medium", "product": "foods", "comment": "town: grapes, violet, basil (Cornu 4/6/19)", } , 
 { "lat": 31.28664, "lon": 49.60146, "name": "Ramhurmuz", "topType": "high", "product": "foods", "comment": "capital: agricultural foods, cloth, perfume, mats, dates, fruits (Cornu 4/6/19)", } , 
 { "lat": 31.28664, "lon": 49.60146, "name": "Ramhurmuz", "topType": "high", "product": "other", "comment": "capital: agricultural foods, cloth, perfume, mats, dates, fruits (Cornu 4/6/19)", } , 
 { "lat": 31.28664, "lon": 49.60146, "name": "Ramhurmuz", "topType": "high", "product": "textiles", "comment": "capital: agricultural foods, cloth, perfume, mats, dates, fruits (Cornu 4/6/19)", } , 
 { "lat": 32.05234, "lon": 48.85306, "name": "Tustar", "topType": "high", "product": "foods", "comment": "town: fruit, wood, silk, cotton, citron, pomegranate, grapes, pears, melons (Cornu 4/6/19)", } , 
 { "lat": 32.05234, "lon": 48.85306, "name": "Tustar", "topType": "high", "product": "materials", "comment": "town: fruit, wood, silk, cotton, citron, pomegranate, grapes, pears, melons (Cornu 4/6/19)", } , 
 { "lat": 32.05234, "lon": 48.85306, "name": "Tustar", "topType": "high", "product": "textiles", "comment": "town: fruit, wood, silk, cotton, citron, pomegranate, grapes, pears, melons (Cornu 4/6/19)", } , 
 { "lat": 30.12783, "lon": 51.5494, "name": "Al-Nawbandijan", "topType": "medium", "product": "foods", "comment": "town: grapes, dates, orange, pomegranates (Cornu 4/6/19)", } , 
 { "lat": 30.39947, "lon": 56.02186, "name": "Al-Rudhan", "topType": "low", "product": "foods", "comment": "town: shoes, textiles, dairy products (Cornu 4/6/19)", } , 
 { "lat": 30.39947, "lon": 56.02186, "name": "Al-Rudhan", "topType": "low", "product": "other", "comment": "town: shoes, textiles, dairy products (Cornu 4/6/19)", } , 
 { "lat": 30.39947, "lon": 56.02186, "name": "Al-Rudhan", "topType": "low", "product": "textiles", "comment": "town: shoes, textiles, dairy products (Cornu 4/6/19)", } , 
 { "lat": 30.6103, "lon": 50.29766, "name": "Arrajan", "topType": "high", "product": "foods", "comment": "capital: dates, lemons, grapes, figs, olives, syrups, soaps, gains, stone, cloth, fish,  (Cornu 4/6/19)", } , 
 { "lat": 30.6103, "lon": 50.29766, "name": "Arrajan", "topType": "high", "product": "materials", "comment": "capital: dates, lemons, grapes, figs, olives, syrups, soaps, gains, stone, cloth, fish,  (Cornu 4/6/19)", } , 
 { "lat": 30.6103, "lon": 50.29766, "name": "Arrajan", "topType": "high", "product": "other", "comment": "capital: dates, lemons, grapes, figs, olives, syrups, soaps, gains, stone, cloth, fish,  (Cornu 4/6/19)", } , 
 { "lat": 30.6103, "lon": 50.29766, "name": "Arrajan", "topType": "high", "product": "textiles", "comment": "capital: dates, lemons, grapes, figs, olives, syrups, soaps, gains, stone, cloth, fish,  (Cornu 4/6/19)", } , 
 { "lat": 28.75143, "lon": 54.54591, "name": "Darabjird", "topType": "medium", "product": "foods", "comment": "town: dates, coth, iron, naptha (Cornu 4/6/19)", } , 
 { "lat": 28.75143, "lon": 54.54591, "name": "Darabjird", "topType": "medium", "product": "materials", "comment": "town: dates, coth, iron, naptha (Cornu 4/6/19)", } , 
 { "lat": 28.75143, "lon": 54.54591, "name": "Darabjird", "topType": "medium", "product": "other", "comment": "town: dates, coth, iron, naptha (Cornu 4/6/19)", } , 
 { "lat": 28.75143, "lon": 54.54591, "name": "Darabjird", "topType": "medium", "product": "textiles", "comment": "town: dates, coth, iron, naptha (Cornu 4/6/19)", } , 
 { "lat": 28.92193, "lon": 53.63181, "name": "Fasa", "topType": "medium", "product": "foods", "comment": "town: fruits, cypress wood, brick (Cornu 4/6/19)", } , 
 { "lat": 28.92193, "lon": 53.63181, "name": "Fasa", "topType": "medium", "product": "materials", "comment": "town: fruits, cypress wood, brick (Cornu 4/6/19)", } , 
 { "lat": 28.31921, "lon": 55.16805, "name": "Furj", "topType": "low", "product": "foods", "comment": "town: agricultural foods (Cornu 4/6/19)", } , 
 { "lat": 30.25118, "lon": 49.70675, "name": "Hinduwan", "topType": "low", "product": "foods", "comment": "town: fish (Cornu 4/6/19)", } , 
 { "lat": 29.97008, "lon": 52.92548, "name": "Istakhr", "topType": "medium", "product": "foods", "comment": "town: clay, grains, pomegranates, agricultural foods (Cornu 4/6/19)", } , 
 { "lat": 28.84797, "lon": 52.58324, "name": "Jur", "topType": "low", "product": "other", "comment": "town: roses (Cornu 4/6/19)", } , 
 { "lat": 28.14336, "lon": 53.94661, "name": "Juwaym Abi Ahmad", "topType": "low", "product": "foods", "comment": "town: dates (Cornu 4/6/19)", } , 
 { "lat": 30.09883, "lon": 51.78407, "name": "Karkam", "topType": "low", "product": "materials", "comment": "town: wood (Cornu 4/6/19)", } , 
 { "lat": 29.60743, "lon": 51.68412, "name": "Kazarun", "topType": "medium", "product": "foods", "comment": "town: linen cloth, dates, fruits (Cornu 4/6/19)", } , 
 { "lat": 29.60743, "lon": 51.68412, "name": "Kazarun", "topType": "medium", "product": "textiles", "comment": "town: linen cloth, dates, fruits (Cornu 4/6/19)", } , 
 { "lat": 29.25713, "lon": 53.20589, "name": "Khawrawadhan", "topType": "low", "product": "foods", "comment": "town: agricultural foods, wood (Cornu 4/6/19)", } , 
 { "lat": 29.25713, "lon": 53.20589, "name": "Khawrawadhan", "topType": "low", "product": "materials", "comment": "town: agricultural foods, wood (Cornu 4/6/19)", } , 
 { "lat": 29.22327, "lon": 51.9773, "name": "Khurrah", "topType": "low", "product": "foods", "comment": "town: dates, sweetmeat (Cornu 4/6/19)", } , 
 { "lat": 29.21962, "lon": 52.69768, "name": "Kul", "topType": "medium", "product": "foods", "comment": "town: clothes, meat, bread (Cornu 4/6/19)", } , 
 { "lat": 29.21962, "lon": 52.69768, "name": "Kul", "topType": "medium", "product": "textiles", "comment": "town: clothes, meat, bread (Cornu 4/6/19)", } , 
 { "lat": 30.69092, "lon": 51.9324, "name": "Kurd", "topType": "low", "product": "foods", "comment": "town: walnuts, fruits (Cornu 4/6/19)", } , 
 { "lat": 29.46769, "lon": 52.66601, "name": "Kurd Fanna Khusraw", "topType": "medium", "product": "textiles", "comment": "town: wool, silk, brocades, fine cloth (Cornu 4/6/19)", } , 
 { "lat": 37.19091, "lon": 55.206, "name": "Shahrastan", "topType": "high", "product": "foods", "comment": "town: citrus, essences, sugarcane, olives, grapes, cows, milk, yogurt, cheese, dates, figs, carob, stone, mortar,  (Cornu 4/6/19)", } , 
 { "lat": 37.19091, "lon": 55.206, "name": "Shahrastan", "topType": "high", "product": "materials", "comment": "town: citrus, essences, sugarcane, olives, grapes, cows, milk, yogurt, cheese, dates, figs, carob, stone, mortar,  (Cornu 4/6/19)", } , 
 { "lat": 37.19091, "lon": 55.206, "name": "Shahrastan", "topType": "high", "product": "other", "comment": "town: citrus, essences, sugarcane, olives, grapes, cows, milk, yogurt, cheese, dates, figs, carob, stone, mortar,  (Cornu 4/6/19)", } , 
 { "lat": 27.69666, "lon": 52.34306, "name": "Siraf", "topType": "medium", "product": "foods", "comment": "capital: brick, teakwood, dates (Cornu 4/6/19)", } , 
 { "lat": 27.69666, "lon": 52.34306, "name": "Siraf", "topType": "medium", "product": "materials", "comment": "capital: brick, teakwood, dates (Cornu 4/6/19)", } , 
 { "lat": 29.42277, "lon": 51.16774, "name": "Tarum", "topType": "low", "product": "foods", "comment": "town: dates, honey (Cornu 4/6/19)", } , 
 { "lat": 29.42208, "lon": 51.17294, "name": "Tawwaz", "topType": "low", "product": "textiles", "comment": "town: linen cloth (Cornu 4/6/19)", } , 
 { "lat": 29.42277, "lon": 51.17032, "name": "Zamm Al-Akrad", "topType": "medium", "product": "foods", "comment": "town: dates, fruits, agricultural products (Cornu 4/6/19)", } , 
 { "lat": 30.67077, "lon": 56.92513, "name": "Janzarudh", "topType": "low", "product": "foods", "comment": "town: fruit (Cornu 4/6/19)", } , 
 { "lat": 29.7101, "lon": 56.6147, "name": "Karistan", "topType": "low", "product": "foods", "comment": "town: walnuts (Cornu 4/6/19)", } , 
 { "lat": 30.46232, "lon": 57.75292, "name": "Khabis", "topType": "medium", "product": "foods", "comment": "town: dates, silk, mulberry (Cornu 4/6/19)", } , 
 { "lat": 28.98436, "lon": 58.64795, "name": "Narmasir", "topType": "high", "product": "foods", "comment": "town: camels, dates, luxuries, brick, fruits (Cornu 4/6/19)", } , 
 { "lat": 28.98436, "lon": 58.64795, "name": "Narmasir", "topType": "high", "product": "materials", "comment": "town: camels, dates, luxuries, brick, fruits (Cornu 4/6/19)", } , 
 { "lat": 28.98436, "lon": 58.64795, "name": "Narmasir", "topType": "high", "product": "other", "comment": "town: camels, dates, luxuries, brick, fruits (Cornu 4/6/19)", } , 
 { "lat": 29.46102, "lon": 55.74854, "name": "Al-Sirjan", "topType": "high", "product": "foods", "comment": "metropolis: agricultural foods, wood, clay, textiles, chairs (Cornu 4/6/19)", } , 
 { "lat": 29.46102, "lon": 55.74854, "name": "Al-Sirjan", "topType": "high", "product": "materials", "comment": "metropolis: agricultural foods, wood, clay, textiles, chairs (Cornu 4/6/19)", } , 
 { "lat": 29.46102, "lon": 55.74854, "name": "Al-Sirjan", "topType": "high", "product": "other", "comment": "metropolis: agricultural foods, wood, clay, textiles, chairs (Cornu 4/6/19)", } , 
 { "lat": 29.46102, "lon": 55.74854, "name": "Al-Sirjan", "topType": "high", "product": "textiles", "comment": "metropolis: agricultural foods, wood, clay, textiles, chairs (Cornu 4/6/19)", } , 
 { "lat": 29.76249, "lon": 56.01438, "name": "Al-Shamat", "topType": "low", "product": "foods", "comment": "town: fruits, grapes (Cornu 4/6/19)", } , 
 { "lat": 32.93881, "lon": 58.45153, "name": "Khur", "topType": "low", "product": "foods", "comment": "town: fruit (Cornu 4/6/19)", } , 
 { "lat": 29.10304, "lon": 58.34327, "name": "Bamm", "topType": "high", "product": "foods", "comment": "town: cloth, clay, grain, turbans, scarves, taylasans (Cornu 4/6/19)", } , 
 { "lat": 29.10304, "lon": 58.34327, "name": "Bamm", "topType": "high", "product": "textiles", "comment": "town: cloth, clay, grain, turbans, scarves, taylasans (Cornu 4/6/19)", } , 
 { "lat": 29.4241, "lon": 57.80931, "name": "Tushtan", "topType": "low", "product": "foods", "comment": "town: wheat (Cornu 4/6/19)", } , 
 { "lat": 29.19678, "lon": 58.17038, "name": "Darzhin", "topType": "low", "product": "foods", "comment": "town: agricultural foods (Cornu 4/6/19)", } , 
 { "lat": 29.33176, "lon": 57.95119, "name": "Awarak", "topType": "low", "product": "materials", "comment": "town: clay (Cornu 4/6/19)", } , 
 { "lat": 29.61239, "lon": 57.49474, "name": "Rayin", "topType": "low", "product": "textiles", "comment": "town: cloth (Cornu 4/6/19)", } , 
 { "lat": 28.69436, "lon": 57.80498, "name": "Jiruft", "topType": "high", "product": "foods", "comment": "capital: fruits, agricultural products, bread, meat, watermelon, clay, stone, dates, walnuts, orange, narcissus, indigo, cumin, sweetmeat, sugar syrup (Cornu 4/6/19)", } , 
 { "lat": 28.69436, "lon": 57.80498, "name": "Jiruft", "topType": "high", "product": "materials", "comment": "capital: fruits, agricultural products, bread, meat, watermelon, clay, stone, dates, walnuts, orange, narcissus, indigo, cumin, sweetmeat, sugar syrup (Cornu 4/6/19)", } , 
 { "lat": 28.69436, "lon": 57.80498, "name": "Jiruft", "topType": "high", "product": "other", "comment": "capital: fruits, agricultural products, bread, meat, watermelon, clay, stone, dates, walnuts, orange, narcissus, indigo, cumin, sweetmeat, sugar syrup (Cornu 4/6/19)", } , 
 { "lat": 27.0994, "lon": 56.94955, "name": "Hurmuz", "topType": "low", "product": "materials", "comment": "town: clay (Cornu 4/6/19)", } , 
 { "lat": 27.45601, "lon": 57.56194, "name": "Manuqan", "topType": "low", "product": "foods", "comment": "town: dates (Cornu 4/6/19)", } , 
 { "lat": 39.33548, "lon": 48.50179, "name": "Mughun", "topType": "low", "product": "foods", "comment": "town: oranges, indigo (Cornu 4/6/19)", } , 
 { "lat": 39.33548, "lon": 48.50179, "name": "Mughun", "topType": "low", "product": "other", "comment": "town: oranges, indigo (Cornu 4/6/19)", } , 
 { "lat": 58.73255, "lon": 28.65736, "name": "Rudhkan", "topType": "low", "product": "foods", "comment": "town: orange (Cornu 4/6/19)", } , 
 { "lat": 29.05486, "lon": 57.54374, "name": "Darfanji", "topType": "low", "product": "foods", "comment": "town: fruits (Cornu 4/6/19)", } , 

]}
